Tube Line,From Station,To Station,Latitude_From,Longitude_From,Latitude_To,Longitude_To,Distance (km)
Central,Bank,St. Pauls,51.51334691914183,-0.0890001234943746,51.51483513873988,-0.0975710001169853,0.62
Central,Barkingside,Fairlop,51.58585076146283,0.0884766401059262,51.59610969417489,0.0905932799159299,1.15
Central,Bethnal Green,Liverpool Street,51.52719165312213,-0.055392111450162,51.51759813225402,-0.0822496218888544,2.14
Central,Bond Street,Marble Arch,51.513797282327445,-0.1496136085316461,51.51396523465938,-0.1585712147927576,0.62
Central,Buckhurst Hill,Woodford,51.62657674004732,0.0467125414287692,51.60720190279034,0.0340562024166259,2.33
Central,Chancery Lane,Holborn,51.51849383581988,-0.1119620267624171,51.51723554139566,-0.1198405066029367,0.56
Central,Chigwell,Roding Valley,51.61785799974183,0.0761792153523027,51.61695652081232,0.0440262071266384,2.22
Central,Debden,Loughton,51.64549214152591,0.0838014752563246,51.641570570828016,0.0552790792874478,2.02
Central,East Acton,North Acton,51.51626301045364,-0.2481122212813141,51.52343200460989,-0.2597295239222282,1.13
Central,Epping,Theydon Bois,51.69368635497796,0.1138255535142121,51.67255225418,0.1028907368816818,2.47
Central,Fairlop,Hainault,51.59610969417489,0.0905932799159299,51.602845483752255,0.0941085508301524,0.79
Central,Gants Hill,Newbury Park,51.57655306294169,0.0660840980631794,51.57563850646377,0.0903031581978967,1.68
Central,Grange Hill,Chigwell,51.61348057933538,0.092272530168692,51.61785799974183,0.0761792153523027,1.21
Central,Greenford,Northolt,51.54197950701463,-0.3458787331310219,51.54821230018008,-0.3684405875976204,1.71
Central,Hainault,Grange Hill,51.602845483752255,0.0941085508301524,51.61348057933538,0.092272530168692,1.19
Central,Hanger Lane,Perivale,51.5300715563412,-0.2929961405571649,51.53634129467288,-0.3230704159011666,2.19
Central,Holborn,Tottenham Court Road,51.51723554139566,-0.1198405066029367,51.516210657936185,-0.1311104379402324,0.79
Central,Holland Park,Shepherds Bush,51.50714614814041,-0.2065577754123284,51.504531795613886,-0.2185191566688487,0.88
Central,Lancaster Gate,Queensway,51.511890658328326,-0.1754299267897915,51.51044892854765,-0.1874199010483689,0.85
Central,Leyton,Stratford,51.55813226231266,-0.006465331580603,51.54169257587399,-0.0037516410271907,1.84
Central,Leytonstone,Leyton,51.56852230672617,0.0091404519570612,51.55813226231266,-0.006465331580603,1.58
Central,Leytonstone,Wanstead,51.56852230672617,0.0091404519570612,51.57490219957087,0.028760472436225,1.53
Central,Liverpool Street,Bank,51.51759813225402,-0.0822496218888544,51.51334691914183,-0.0890001234943746,0.66
Central,Loughton,Buckhurst Hill,51.641570570828016,0.0552790792874478,51.62657674004732,0.0467125414287692,1.77
Central,Marble Arch,Lancaster Gate,51.51396523465938,-0.1585712147927576,51.511890658328326,-0.1754299267897915,1.19
Central,Mile End,Bethnal Green,51.5253109195645,-0.0326660842711517,51.52719165312213,-0.055392111450162,1.59
Central,Newbury Park,Barkingside,51.57563850646377,0.0903031581978967,51.58585076146283,0.0884766401059262,1.14
Central,North Acton,Hanger Lane,51.52343200460989,-0.2597295239222282,51.5300715563412,-0.2929961405571649,2.42
Central,North Acton,West Acton,51.52343200460989,-0.2597295239222282,51.51776969314101,-0.2806571709044868,1.58
Central,Northolt,South Ruislip,51.54821230018008,-0.3684405875976204,51.55688965147795,-0.3991159010068219,2.33
Central,Notting Hill Gate,Holland Park,51.50937501801177,-0.1959216162263908,51.50714614814041,-0.2065577754123284,0.78
Central,Oxford Circus,Bond Street,51.51522317440166,-0.1408361701333405,51.513797282327445,-0.1496136085316461,0.63
Central,Perivale,Greenford,51.53634129467288,-0.3230704159011666,51.54197950701463,-0.3458787331310219,1.7
Central,Queensway,Notting Hill Gate,51.51044892854765,-0.1874199010483689,51.50937501801177,-0.1959216162263908,0.6
Central,Redbridge,Gants Hill,51.576366994360605,0.0453940440870773,51.57655306294169,0.0660840980631794,1.43
Central,Ruislip Gardens,West Ruislip,51.55995951052218,-0.4092941013740339,51.56958715703546,-0.4378601343740381,2.25
Central,Shepherds Bush,White City,51.504531795613886,-0.2185191566688487,51.51223207227981,-0.2246319285152728,0.96
Central,Snaresbrook,Leytonstone,51.58089131157066,0.021463927810755,51.56852230672617,0.0091404519570612,1.62
Central,South Ruislip,Ruislip Gardens,51.55688965147795,-0.3991159010068219,51.55995951052218,-0.4092941013740339,0.78
Central,South Woodford,Snaresbrook,51.59155266475493,0.0279430783744094,51.58089131157066,0.021463927810755,1.27
Central,St. Pauls,Chancery Lane,51.51483513873988,-0.0975710001169853,51.51849383581988,-0.1119620267624171,1.08
Central,Stratford,Mile End,51.54169257587399,-0.0037516410271907,51.5253109195645,-0.0326660842711517,2.71
Central,Theydon Bois,Debden,51.67255225418,0.1028907368816818,51.64549214152591,0.0838014752563246,3.29
Central,Tottenham Court Road,Oxford Circus,51.516210657936185,-0.1311104379402324,51.51522317440166,-0.1408361701333405,0.68
Central,Wanstead,Redbridge,51.57490219957087,0.028760472436225,51.576366994360605,0.0453940440870773,1.16
Central,West Acton,Ealing Broadway,51.51776969314101,-0.2806571709044868,51.51486148277942,-0.3020103761336258,1.51
Central,White City,East Acton,51.51223207227981,-0.2246319285152728,51.51626301045364,-0.2481122212813141,1.69
Central,Woodford,South Woodford,51.60720190279034,0.0340562024166259,51.59155266475493,0.0279430783744094,1.79
Circle,Aldgate,Tower Hill,51.5143422574978,-0.0756269123224862,51.51039415022928,-0.0767011981209769,0.45
Circle,Baker Street,Great Portland Street,51.52312936605881,-0.1569041929861845,51.52378856271794,-0.1439614240810903,0.9
Circle,Barbican,Moorgate,51.52021512610784,-0.0977215780905022,51.51843699583112,-0.0890176874196191,0.63
Circle,Bayswater,Paddington,51.51211098317958,-0.1879015718782054,51.51539350022652,-0.1757367502657722,0.92
Circle,Blackfriars,Temple,51.51158676169501,-0.1029953846245054,51.51104042360467,-0.1137257495312543,0.75
Circle,Cannon Street,Mansion House,51.51136194370192,-0.0902505264150347,51.5120915984511,-0.0941976572437842,0.29
Circle,Edgware Road (Circle/District/Hammersmith and City),Baker Street,51.519997771093394,-0.1676682526511785,51.52312936605881,-0.1569041929861845,0.82
Circle,Embankment,Westminster,51.50731229694681,-0.1223673356621198,51.501401389193255,-0.1250020783467796,0.68
Circle,Euston Square,Kings Cross St. Pancras,51.525468382999584,-0.1353444884426915,51.53031226194627,-0.1238721286870342,0.96
Circle,Farringdon,Barbican,51.52019551919777,-0.1048430613167642,51.52021512610784,-0.0977215780905022,0.49
Circle,Gloucester Road,High Street Kensington,51.4944992596252,-0.183543557571591,51.50072913416872,-0.1915660554964191,0.89
Circle,Goldhawk Road,Shepherds Bush Market,51.50207659663676,-0.2274040032488232,51.50588033819017,-0.2274004904102091,0.42
Circle,Great Portland Street,Euston Square,51.52378856271794,-0.1439614240810903,51.525468382999584,-0.1353444884426915,0.62
Circle,Hammersmith (Met.),Goldhawk Road,51.49348298668772,-0.2246401545007005,51.50207659663676,-0.2274040032488232,0.97
Circle,High Street Kensington,Notting Hill Gate,51.50072913416872,-0.1915660554964191,51.50937501801177,-0.1959216162263908,1.01
Circle,Kings Cross St. Pancras,Farringdon,51.53031226194627,-0.1238721286870342,51.52019551919777,-0.1048430613167642,1.73
Circle,Ladbroke Grove,Westbourne Park,51.51721033175281,-0.2101981698917929,51.520988514909256,-0.2008825128147461,0.77
Circle,Latimer Road,Ladbroke Grove,51.51395774487751,-0.2174596633172416,51.51721033175281,-0.2101981698917929,0.62
Circle,Liverpool Street,Aldgate,51.51759813225402,-0.0822496218888544,51.5143422574978,-0.0756269123224862,0.58
Circle,Mansion House,Blackfriars,51.5120915984511,-0.0941976572437842,51.51158676169501,-0.1029953846245054,0.61
Circle,Monument,Cannon Street,51.51063027735101,-0.0861883132610571,51.51136194370192,-0.0902505264150347,0.29
Circle,Moorgate,Liverpool Street,51.51843699583112,-0.0890176874196191,51.51759813225402,-0.0822496218888544,0.48
Circle,Notting Hill Gate,Bayswater,51.50937501801177,-0.1959216162263908,51.51211098317958,-0.1879015718782054,0.63
Circle,Paddington,Edgware Road (Circle/District/Hammersmith and City),51.51539350022652,-0.1757367502657722,51.519997771093394,-0.1676682526511785,0.76
Circle,Royal Oak,Paddington,51.5182940459234,-0.1888236715468541,51.51539350022652,-0.1757367502657722,0.96
Circle,Shepherds Bush Market,Wood Lane,51.50588033819017,-0.2274004904102091,51.5096578296917,-0.2244726057099385,0.47
Circle,Sloane Square,South Kensington,51.49235951048056,-0.1564888560570236,51.49407108325524,-0.1739230213376395,1.22
Circle,South Kensington,Gloucester Road,51.49407108325524,-0.1739230213376395,51.4944992596252,-0.183543557571591,0.67
Circle,St. James's Park,Victoria,51.49960957772611,-0.1338787543411247,51.49642371956767,-0.1439207051263039,0.78
Circle,Temple,Embankment,51.51104042360467,-0.1137257495312543,51.50731229694681,-0.1223673356621198,0.73
Circle,Tower Hill,Monument,51.51039415022928,-0.0767011981209769,51.51063027735101,-0.0861883132610571,0.66
Circle,Victoria,Sloane Square,51.49642371956767,-0.1439207051263039,51.49235951048056,-0.1564888560570236,0.98
Circle,Westbourne Park,Royal Oak,51.520988514909256,-0.2008825128147461,51.5182940459234,-0.1888236715468541,0.89
Circle,Westminster,St. James's Park,51.501401389193255,-0.1250020783467796,51.49960957772611,-0.1338787543411247,0.65
Circle,Wood Lane,Latimer Road,51.5096578296917,-0.2244726057099385,51.51395774487751,-0.2174596633172416,0.68
Jubilee,Baker Street,Bond Street,51.52312936605881,-0.1569041929861845,51.513797282327445,-0.1496136085316461,1.15
Jubilee,Bermondsey,Canada Water,51.49796067750633,-0.0643300898115236,51.49816833125088,-0.0508071208490972,0.94
Jubilee,Bond Street,Green Park,51.513797282327445,-0.1496136085316461,51.50676025371464,-0.1424775744225331,0.93
Jubilee,Canada Water,Canary Wharf,51.49816833125088,-0.0508071208490972,51.50357837512887,-0.0194668401393244,2.25
Jubilee,Canary Wharf,North Greenwich,51.50357837512887,-0.0194668401393244,51.5002551610895,0.0035862591259508,1.64
Jubilee,Canning Town,West Ham,51.51387030350512,0.0083056327487643,51.528525530726974,0.0053173938327879,1.64
Jubilee,Canons Park,Queensbury,51.60765009028535,-0.294391591494146,51.59388250931327,-0.286331592620629,1.63
Jubilee,Dollis Hill,Willesden Green,51.55185020227431,-0.2387977583647576,51.54937292482699,-0.2224076012496468,1.17
Jubilee,Finchley Road,Swiss Cottage,51.54709590643439,-0.1800505586324935,51.5430345616616,-0.1756266026411379,0.55
Jubilee,Green Park,Westminster,51.50676025371464,-0.1424775744225331,51.501401389193255,-0.1250020783467796,1.35
Jubilee,Kilburn,West Hampstead,51.54694410286596,-0.2046327166992552,51.54747402267271,-0.1911265834430952,0.94
Jubilee,Kingsbury,Wembley Park,51.58487606349117,-0.2786016037131724,51.56332200349157,-0.2792425481111569,2.4
Jubilee,London Bridge,Bermondsey,51.50467420930433,-0.0860055977481396,51.49796067750633,-0.0643300898115236,1.68
Jubilee,Neasden,Dollis Hill,51.55462731004116,-0.2501150416936122,51.55185020227431,-0.2387977583647576,0.84
Jubilee,North Greenwich,Canning Town,51.5002551610895,0.0035862591259508,51.51387030350512,0.0083056327487643,1.55
Jubilee,Queensbury,Kingsbury,51.59388250931327,-0.286331592620629,51.58487606349117,-0.2786016037131724,1.14
Jubilee,Southwark,London Bridge,51.50385344972166,-0.1057949389250921,51.50467420930433,-0.0860055977481396,1.37
Jubilee,St. Johns Wood,Baker Street,51.53485412839329,-0.1740648386620702,51.52312936605881,-0.1569041929861845,1.76
Jubilee,Stanmore,Canons Park,51.619672950483576,-0.3030992875952985,51.60765009028535,-0.294391591494146,1.47
Jubilee,Swiss Cottage,St. Johns Wood,51.5430345616616,-0.1756266026411379,51.53485412839329,-0.1740648386620702,0.92
Jubilee,Waterloo,Southwark,51.50314645678346,-0.1132592512581959,51.50385344972166,-0.1057949389250921,0.52
Jubilee,Wembley Park,Neasden,51.56332200349157,-0.2792425481111569,51.55462731004116,-0.2501150416936122,2.23
Jubilee,West Ham,Stratford,51.528525530726974,0.0053173938327879,51.54169257587399,-0.0037516410271907,1.59
Jubilee,West Hampstead,Finchley Road,51.54747402267271,-0.1911265834430952,51.54709590643439,-0.1800505586324935,0.77
Jubilee,Westminster,Waterloo,51.501401389193255,-0.1250020783467796,51.50314645678346,-0.1132592512581959,0.84
Jubilee,Willesden Green,Kilburn,51.54937292482699,-0.2224076012496468,51.54694410286596,-0.2046327166992552,1.26
Piccadilly,Acton Town,Ealing Common,51.50307098636339,-0.280302696832724,51.510248187933655,-0.2871514131053222,0.93
Piccadilly,Acton Town,South Ealing,51.50307098636339,-0.280302696832724,51.50164352033085,-0.3070402394612233,1.86
Piccadilly,Alperton,Sudbury Town,51.54120878643842,-0.2995157534755783,51.55139692710825,-0.3163434799075774,1.62
Piccadilly,Arnos Grove,Bounds Green,51.61622992455143,-0.1342702177218493,51.60703172061751,-0.1241770647347964,1.24
Piccadilly,Arsenal,Holloway Road,51.55854120559965,-0.1054999329611858,51.552815921064415,-0.1129356962168598,0.82
Piccadilly,Barons Court,Hammersmith (District),51.490228334902,-0.2134301424178916,51.49181941355715,-0.2228609258853042,0.68
Piccadilly,Boston Manor,Osterley,51.49576500584812,-0.3247471826223813,51.48121623575927,-0.3520960888490031,2.49
Piccadilly,Bounds Green,Wood Green,51.60703172061751,-0.1241770647347964,51.59745355165763,-0.1095265887761309,1.47
Piccadilly,Caledonian Road,Kings Cross St. Pancras,51.54788524982811,-0.1183608610646948,51.53031226194627,-0.1238721286870342,1.99
Piccadilly,Cockfosters,Oakwood,51.65202423620424,-0.149916709772051,51.64763774735996,-0.1318535388133937,1.34
Piccadilly,Covent Garden,Leicester Square,51.51276003353218,-0.1245068937369663,51.51129097417173,-0.1282421466298067,0.31
Piccadilly,Ealing Common,North Ealing,51.510248187933655,-0.2871514131053222,51.51762181807098,-0.2889935477531711,0.83
Piccadilly,Earls Court,Barons Court,51.49135635619762,-0.1943138070951425,51.490228334902,-0.2134301424178916,1.33
Piccadilly,Eastcote,Ruislip Manor,51.57655117614093,-0.3968232901498021,51.57345090114912,-0.4128493444318482,1.16
Piccadilly,Finsbury Park,Arsenal,51.564635274841386,-0.1058814855289023,51.55854120559965,-0.1054999329611858,0.68
Piccadilly,Gloucester Road,Earls Court,51.4944992596252,-0.183543557571591,51.49135635619762,-0.1943138070951425,0.82
Piccadilly,Green Park,Hyde Park Corner,51.50676025371464,-0.1424775744225331,51.502583765542106,-0.1524741126318679,0.83
Piccadilly,Hammersmith (District),Turnham Green,51.49181941355715,-0.2228609258853042,51.49518152685563,-0.2545245642842539,2.22
Piccadilly,Hatton Cross,Heathrow Terminal 4,51.466684612990974,-0.4233805529699787,51.4597796985324,-0.4477295782660727,1.85
Piccadilly,Hatton Cross,Heathrow Terminals 1 2 3,51.466684612990974,-0.4233805529699787,51.47128866191333,-0.4524072136493198,2.08
Piccadilly,Heathrow Terminals 1 2 3,Heathrow Terminal 4,51.47128866191333,-0.4524072136493198,51.4597796985324,-0.4477295782660727,1.32
Piccadilly,Heathrow Terminals 1 2 3,Heathrow Terminal 5,51.47128866191333,-0.4524072136493198,51.470024624464,-0.4906474891242473,2.65
Piccadilly,Hillingdon,Uxbridge,51.553776781763695,-0.4498979816230209,51.54645372786724,-0.4771015464209747,2.05
Piccadilly,Holborn,Covent Garden,51.51723554139566,-0.1198405066029367,51.51276003353218,-0.1245068937369663,0.59
Piccadilly,Holloway Road,Caledonian Road,51.552815921064415,-0.1129356962168598,51.54788524982811,-0.1183608610646948,0.66
Piccadilly,Hounslow Central,Hounslow West,51.47092516879989,-0.3659581213668801,51.47310508637143,-0.385707619977202,1.39
Piccadilly,Hounslow East,Hounslow Central,51.47370731480755,-0.3552753144989688,51.47092516879989,-0.3659581213668801,0.8
Piccadilly,Hounslow West,Hatton Cross,51.47310508637143,-0.385707619977202,51.466684612990974,-0.4233805529699787,2.71
Piccadilly,Hyde Park Corner,Knightsbridge,51.502583765542106,-0.1524741126318679,51.50135463701893,-0.1606644846228093,0.58
Piccadilly,Ickenham,Hillingdon,51.56082433291199,-0.4415795012687994,51.553776781763695,-0.4498979816230209,0.97
Piccadilly,Kings Cross St. Pancras,Russell Square,51.53031226194627,-0.1238721286870342,51.523012836646224,-0.1245901968726192,0.81
Piccadilly,Knightsbridge,South Kensington,51.50135463701893,-0.1606644846228093,51.49407108325524,-0.1739230213376395,1.22
Piccadilly,Leicester Square,Piccadilly Circus,51.51129097417173,-0.1282421466298067,51.50969653217059,-0.1337115961590762,0.42
Piccadilly,Manor House,Finsbury Park,51.570746986190926,-0.0956849757319274,51.564635274841386,-0.1058814855289023,0.98
Piccadilly,North Ealing,Park Royal,51.51762181807098,-0.2889935477531711,51.526833556086295,-0.2849289129671047,1.06
Piccadilly,Northfields,Boston Manor,51.50049115689572,-0.3150648129885717,51.49576500584812,-0.3247471826223813,0.85
Piccadilly,Oakwood,Southgate,51.64763774735996,-0.1318535388133937,51.63237564173069,-0.1277700463078405,1.72
Piccadilly,Osterley,Hounslow East,51.48121623575927,-0.3520960888490031,51.47370731480755,-0.3552753144989688,0.86
Piccadilly,Park Royal,Alperton,51.526833556086295,-0.2849289129671047,51.54120878643842,-0.2995157534755783,1.89
Piccadilly,Piccadilly Circus,Green Park,51.50969653217059,-0.1337115961590762,51.50676025371464,-0.1424775744225331,0.69
Piccadilly,Rayners Lane,Eastcote,51.57539612738852,-0.3710608057487111,51.57655117614093,-0.3968232901498021,1.79
Piccadilly,Ruislip,Ickenham,51.572161233876166,-0.4212349155921323,51.56082433291199,-0.4415795012687994,1.89
Piccadilly,Ruislip Manor,Ruislip,51.57345090114912,-0.4128493444318482,51.572161233876166,-0.4212349155921323,0.6
Piccadilly,Russell Square,Holborn,51.523012836646224,-0.1245901968726192,51.51723554139566,-0.1198405066029367,0.72
Piccadilly,South Ealing,Northfields,51.50164352033085,-0.3070402394612233,51.50049115689572,-0.3150648129885717,0.57
Piccadilly,South Harrow,Rayners Lane,51.56467959482167,-0.351893963731605,51.57539612738852,-0.3710608057487111,1.78
Piccadilly,South Harrow,Sudbury Hill,51.56467959482167,-0.351893963731605,51.55733901102981,-0.3363921085382283,1.35
Piccadilly,South Kensington,Gloucester Road,51.49407108325524,-0.1739230213376395,51.4944992596252,-0.183543557571591,0.67
Piccadilly,Southgate,Arnos Grove,51.63237564173069,-0.1277700463078405,51.61622992455143,-0.1342702177218493,1.85
Piccadilly,Sudbury Town,Sudbury Hill,51.55139692710825,-0.3163434799075774,51.55733901102981,-0.3363921085382283,1.54
Piccadilly,Turnham Green,Acton Town,51.49518152685563,-0.2545245642842539,51.50307098636339,-0.280302696832724,1.99
Piccadilly,Turnpike Lane,Manor House,51.59035796825513,-0.1028050405776601,51.570746986190926,-0.0956849757319274,2.24
Piccadilly,Wood Green,Turnpike Lane,51.59745355165763,-0.1095265887761309,51.59035796825513,-0.1028050405776601,0.92
