Tube Line,From Station,To Station,Latitude_From,Longitude_From,Latitude_To,Longitude_To,Distance (km)
Bakerloo,Baker Street,Regents Park,51.52312936605881,-0.1569041929861845,51.523810437772845,-0.1453444097205957,0.8
Bakerloo,Charing Cross,Embankment,51.50835842818622,-0.1248029372330441,51.50731229694681,-0.1223673356621198,0.2
Bakerloo,Edgware Road (Bakerloo),Marylebone,51.520645084536135,-0.1705395498997404,51.52239640326536,-0.1634925623109129,0.53
Bakerloo,Embankment,Waterloo,51.50731229694681,-0.1223673356621198,51.50314645678346,-0.1132592512581959,0.78
Bakerloo,Harlesden,Willesden Junction,51.53625790862039,-0.2574956703770174,51.53223356661704,-0.243909139837678,1.04
Bakerloo,Harrow and Wealdstone,Kenton,51.59259408808769,-0.3342526785741267,51.5814957703514,-0.3152168608263206,1.8
Bakerloo,Kensal Green,Queens Park,51.53052384871879,-0.2247133811380436,51.53431231776354,-0.2047981469506716,1.44
Bakerloo,Kenton,South Kenton,51.5814957703514,-0.3152168608263206,51.57104394755128,-0.3081429717620929,1.26
Bakerloo,Kilburn Park,Maida Vale,51.53513522184343,-0.1939660549397059,51.5299947556212,-0.1854326449358559,0.82
Bakerloo,Lambeth North,Elephant and Castle,51.49912976538859,-0.1117682604602059,51.49584922002923,-0.1007387142562823,0.85
Bakerloo,Maida Vale,Warwick Avenue,51.5299947556212,-0.1854326449358559,51.52310413807906,-0.1829532911134564,0.79
Bakerloo,Marylebone,Baker Street,51.52239640326536,-0.1634925623109129,51.52312936605881,-0.1569041929861845,0.46
Bakerloo,North Wembley,Wembley Central,51.56239579644328,-0.3039482139132909,51.55186429753856,-0.2963923219160409,1.28
Bakerloo,Oxford Circus,Piccadilly Circus,51.51522317440166,-0.1408361701333405,51.50969653217059,-0.1337115961590762,0.79
Bakerloo,Paddington,Edgware Road (Bakerloo),51.51539350022652,-0.1757367502657722,51.520645084536135,-0.1705395498997404,0.69
Bakerloo,Piccadilly Circus,Charing Cross,51.50969653217059,-0.1337115961590762,51.50835842818622,-0.1248029372330441,0.63
Bakerloo,Queens Park,Kilburn Park,51.53431231776354,-0.2047981469506716,51.53513522184343,-0.1939660549397059,0.76
Bakerloo,Regents Park,Oxford Circus,51.523810437772845,-0.1453444097205957,51.51522317440166,-0.1408361701333405,1.0
Bakerloo,South Kenton,North Wembley,51.57104394755128,-0.3081429717620929,51.56239579644328,-0.3039482139132909,1.0
Bakerloo,Stonebridge Park,Harlesden,51.54398610565641,-0.2754004371046793,51.53625790862039,-0.2574956703770174,1.51
Bakerloo,Warwick Avenue,Paddington,51.52310413807906,-0.1829532911134564,51.51539350022652,-0.1757367502657722,0.99
Bakerloo,Waterloo,Lambeth North,51.50314645678346,-0.1132592512581959,51.49912976538859,-0.1117682604602059,0.46
Bakerloo,Wembley Central,Stonebridge Park,51.55186429753856,-0.2963923219160409,51.54398610565641,-0.2754004371046793,1.7
Bakerloo,Willesden Junction,Kensal Green,51.53223356661704,-0.243909139837678,51.53052384871879,-0.2247133811380436,1.34
Central,Barkingside,Fairlop,51.58585076146283,0.0884766401059262,51.59610969417489,0.0905932799159299,1.15
Central,Bethnal Green,Liverpool Street,51.52719165312213,-0.055392111450162,51.51759813225402,-0.0822496218888544,2.14
Central,Bond Street,Marble Arch,51.513797282327445,-0.1496136085316461,51.51396523465938,-0.1585712147927576,0.62
Central,Buckhurst Hill,Woodford,51.62657674004732,0.0467125414287692,51.60720190279034,0.0340562024166259,2.33
Central,Chancery Lane,Holborn,51.51849383581988,-0.1119620267624171,51.51723554139566,-0.1198405066029367,0.56
Central,Chigwell,Roding Valley,51.61785799974183,0.0761792153523027,51.61695652081232,0.0440262071266384,2.22
Central,Debden,Loughton,51.64549214152591,0.0838014752563246,51.641570570828016,0.0552790792874478,2.02
Central,East Acton,North Acton,51.51626301045364,-0.2481122212813141,51.52343200460989,-0.2597295239222282,1.13
Central,Epping,Theydon Bois,51.69368635497796,0.1138255535142121,51.67255225418,0.1028907368816818,2.47
Central,Fairlop,Hainault,51.59610969417489,0.0905932799159299,51.602845483752255,0.0941085508301524,0.79
Central,Gants Hill,Newbury Park,51.57655306294169,0.0660840980631794,51.57563850646377,0.0903031581978967,1.68
Central,Grange Hill,Chigwell,51.61348057933538,0.092272530168692,51.61785799974183,0.0761792153523027,1.21
Central,Greenford,Northolt,51.54197950701463,-0.3458787331310219,51.54821230018008,-0.3684405875976204,1.71
Central,Hainault,Grange Hill,51.602845483752255,0.0941085508301524,51.61348057933538,0.092272530168692,1.19
Central,Hanger Lane,Perivale,51.5300715563412,-0.2929961405571649,51.53634129467288,-0.3230704159011666,2.19
Central,Holborn,Tottenham Court Road,51.51723554139566,-0.1198405066029367,51.516210657936185,-0.1311104379402324,0.79
Central,Holland Park,Shepherds Bush,51.50714614814041,-0.2065577754123284,51.504531795613886,-0.2185191566688487,0.88
Central,Lancaster Gate,Queensway,51.511890658328326,-0.1754299267897915,51.51044892854765,-0.1874199010483689,0.85
Central,Leyton,Stratford,51.55813226231266,-0.006465331580603,51.54169257587399,-0.0037516410271907,1.84
Central,Leytonstone,Leyton,51.56852230672617,0.0091404519570612,51.55813226231266,-0.006465331580603,1.58
Central,Leytonstone,Wanstead,51.56852230672617,0.0091404519570612,51.57490219957087,0.028760472436225,1.53
Central,Liverpool Street,Bank,51.51759813225402,-0.0822496218888544,51.51334691914183,-0.0890001234943746,0.66
Central,Loughton,Buckhurst Hill,51.641570570828016,0.0552790792874478,51.62657674004732,0.0467125414287692,1.77
Central,Marble Arch,Lancaster Gate,51.51396523465938,-0.1585712147927576,51.511890658328326,-0.1754299267897915,1.19
Central,Mile End,Bethnal Green,51.5253109195645,-0.0326660842711517,51.52719165312213,-0.055392111450162,1.59
Central,Newbury Park,Barkingside,51.57563850646377,0.0903031581978967,51.58585076146283,0.0884766401059262,1.14
Central,North Acton,Hanger Lane,51.52343200460989,-0.2597295239222282,51.5300715563412,-0.2929961405571649,2.42
Central,North Acton,West Acton,51.52343200460989,-0.2597295239222282,51.51776969314101,-0.2806571709044868,1.58
Central,Northolt,South Ruislip,51.54821230018008,-0.3684405875976204,51.55688965147795,-0.3991159010068219,2.33
Central,Notting Hill Gate,Holland Park,51.50937501801177,-0.1959216162263908,51.50714614814041,-0.2065577754123284,0.78
Central,Oxford Circus,Bond Street,51.51522317440166,-0.1408361701333405,51.513797282327445,-0.1496136085316461,0.63
Central,Perivale,Greenford,51.53634129467288,-0.3230704159011666,51.54197950701463,-0.3458787331310219,1.7
Central,Queensway,Notting Hill Gate,51.51044892854765,-0.1874199010483689,51.50937501801177,-0.1959216162263908,0.6
Central,Redbridge,Gants Hill,51.576366994360605,0.0453940440870773,51.57655306294169,0.0660840980631794,1.43
Central,Ruislip Gardens,West Ruislip,51.55995951052218,-0.4092941013740339,51.56958715703546,-0.4378601343740381,2.25
Central,Shepherds Bush,White City,51.504531795613886,-0.2185191566688487,51.51223207227981,-0.2246319285152728,0.96
Central,Snaresbrook,Leytonstone,51.58089131157066,0.021463927810755,51.56852230672617,0.0091404519570612,1.62
Central,South Ruislip,Ruislip Gardens,51.55688965147795,-0.3991159010068219,51.55995951052218,-0.4092941013740339,0.78
Central,South Woodford,Snaresbrook,51.59155266475493,0.0279430783744094,51.58089131157066,0.021463927810755,1.27
Central,Bank,Chancery Lane,51.51334691914183,-0.0890001234943746,51.51849383581988,-0.1119620267624171,1.69
Central,Stratford,Mile End,51.54169257587399,-0.0037516410271907,51.5253109195645,-0.0326660842711517,2.71
Central,Theydon Bois,Debden,51.67255225418,0.1028907368816818,51.64549214152591,0.0838014752563246,3.29
Central,Tottenham Court Road,Oxford Circus,51.516210657936185,-0.1311104379402324,51.51522317440166,-0.1408361701333405,0.68
Central,Wanstead,Redbridge,51.57490219957087,0.028760472436225,51.576366994360605,0.0453940440870773,1.16
Central,West Acton,Ealing Broadway,51.51776969314101,-0.2806571709044868,51.51486148277942,-0.3020103761336258,1.51
Central,White City,East Acton,51.51223207227981,-0.2246319285152728,51.51626301045364,-0.2481122212813141,1.69
Central,Woodford,South Woodford,51.60720190279034,0.0340562024166259,51.59155266475493,0.0279430783744094,1.79
Circle,Aldgate,Tower Hill,51.5143422574978,-0.0756269123224862,51.51039415022928,-0.0767011981209769,0.45
Circle,Baker Street,Great Portland Street,51.52312936605881,-0.1569041929861845,51.52378856271794,-0.1439614240810903,0.9
Circle,Barbican,Moorgate,51.52021512610784,-0.0977215780905022,51.51843699583112,-0.0890176874196191,0.63
Circle,Bayswater,Paddington,51.51211098317958,-0.1879015718782054,51.51539350022652,-0.1757367502657722,0.92
Circle,Blackfriars,Temple,51.51158676169501,-0.1029953846245054,51.51104042360467,-0.1137257495312543,0.75
Circle,Cannon Street,Mansion House,51.51136194370192,-0.0902505264150347,51.5120915984511,-0.0941976572437842,0.29
Circle,Edgware Road,Baker Street,51.519997771093394,-0.1676682526511785,51.52312936605881,-0.1569041929861845,0.82
Circle,Embankment,Westminster,51.50731229694681,-0.1223673356621198,51.501401389193255,-0.1250020783467796,0.68
Circle,Farringdon,Barbican,51.52019551919777,-0.1048430613167642,51.52021512610784,-0.0977215780905022,0.49
Circle,Gloucester Road,High Street Kensington,51.4944992596252,-0.183543557571591,51.50072913416872,-0.1915660554964191,0.89
Circle,Goldhawk Road,Shepherds Bush Market,51.50207659663676,-0.2274040032488232,51.50588033819017,-0.2274004904102091,0.42
Circle,Great Portland Street,Euston Square,51.52378856271794,-0.1439614240810903,51.525468382999584,-0.1353444884426915,0.62
Circle,Hammersmith (Met.),Goldhawk Road,51.49348298668772,-0.2246401545007005,51.50207659663676,-0.2274040032488232,0.97
Circle,High Street Kensington,Notting Hill Gate,51.50072913416872,-0.1915660554964191,51.50937501801177,-0.1959216162263908,1.01
Circle,Ladbroke Grove,Westbourne Park,51.51721033175281,-0.2101981698917929,51.520988514909256,-0.2008825128147461,0.77
Circle,Latimer Road,Ladbroke Grove,51.51395774487751,-0.2174596633172416,51.51721033175281,-0.2101981698917929,0.62
Circle,Liverpool Street,Aldgate,51.51759813225402,-0.0822496218888544,51.5143422574978,-0.0756269123224862,0.58
Circle,Mansion House,Blackfriars,51.5120915984511,-0.0941976572437842,51.51158676169501,-0.1029953846245054,0.61
Circle,Monument,Cannon Street,51.51063027735101,-0.0861883132610571,51.51136194370192,-0.0902505264150347,0.29
Circle,Moorgate,Liverpool Street,51.51843699583112,-0.0890176874196191,51.51759813225402,-0.0822496218888544,0.48
Circle,Notting Hill Gate,Bayswater,51.50937501801177,-0.1959216162263908,51.51211098317958,-0.1879015718782054,0.63
Circle,Paddington,Edgware Road,51.51539350022652,-0.1757367502657722,51.519997771093394,-0.1676682526511785,0.76
Circle,Royal Oak,Paddington,51.5182940459234,-0.1888236715468541,51.51539350022652,-0.1757367502657722,0.96
Circle,Shepherds Bush Market,Wood Lane,51.50588033819017,-0.2274004904102091,51.5096578296917,-0.2244726057099385,0.47
Circle,Sloane Square,South Kensington,51.49235951048056,-0.1564888560570236,51.49407108325524,-0.1739230213376395,1.22
Circle,South Kensington,Gloucester Road,51.49407108325524,-0.1739230213376395,51.4944992596252,-0.183543557571591,0.67
Circle,Temple,Embankment,51.51104042360467,-0.1137257495312543,51.50731229694681,-0.1223673356621198,0.73
Circle,Tower Hill,Monument,51.51039415022928,-0.0767011981209769,51.51063027735101,-0.0861883132610571,0.66
Circle,Victoria,Sloane Square,51.49642371956767,-0.1439207051263039,51.49235951048056,-0.1564888560570236,0.98
Circle,Westbourne Park,Royal Oak,51.520988514909256,-0.2008825128147461,51.5182940459234,-0.1888236715468541,0.89
Circle,Wood Lane,Latimer Road,51.5096578296917,-0.2244726057099385,51.51395774487751,-0.2174596633172416,0.68
District,Acton Town,Ealing Common,51.50307098636339,-0.280302696832724,51.510248187933655,-0.2871514131053222,0.93
District,Aldgate East,Tower Hill,51.51508150569872,-0.0730014624207395,51.51039415022928,-0.0767011981209769,0.58
District,Barking,East Ham,51.53952124839739,0.0808316104030654,51.53924625194368,0.0515162934805761,2.03
District,Barons Court,Hammersmith (District),51.490228334902,-0.2134301424178916,51.49181941355715,-0.2228609258853042,0.68
District,Bayswater,Paddington,51.51211098317958,-0.1879015718782054,51.51539350022652,-0.1757367502657722,0.92
District,Becontree,Upney,51.53958561974398,0.1268802926935937,51.53840581666546,0.1015317446641368,1.76
District,Blackfriars,Temple,51.51158676169501,-0.1029953846245054,51.51104042360467,-0.1137257495312543,0.75
District,Bow Church,Stepney Green,51.52761517272713,-0.0204998991771463,51.521995758615454,-0.047382523194855,1.96
District,Bow Road,Bow Church,51.52704176950966,-0.0243595906326814,51.52761517272713,-0.0204998991771463,0.27
District,Bromley-by-Bow,Bow Road,51.52484018370095,-0.0116823743530453,51.52704176950966,-0.0243595906326814,0.91
District,Cannon Street,Mansion House,51.51136194370192,-0.0902505264150347,51.5120915984511,-0.0941976572437842,0.29
District,Chiswick Park,Acton Town,51.49437027794272,-0.2677369179922983,51.50307098636339,-0.280302696832724,1.3
District,Dagenham East,Dagenham Heathway,51.54418761328958,0.1658334333091666,51.54121203550144,0.1476797214740033,1.3
District,Dagenham Heathway,Becontree,51.54121203550144,0.1476797214740033,51.53958561974398,0.1268802926935937,1.45
District,Ealing Common,Ealing Broadway,51.510248187933655,-0.2871514131053222,51.51486148277942,-0.3020103761336258,1.15
District,Earls Court,High Street Kensington,51.49135635619762,-0.1943138070951425,51.50072913416872,-0.1915660554964191,1.06
District,Earls Court,Kensington (Olympia),51.49135635619762,-0.1943138070951425,51.49787935712583,-0.2103792397678828,1.33
District,Earls Court,West Brompton,51.49135635619762,-0.1943138070951425,51.48732859696135,-0.1955388096704278,0.46
District,Earls Court,West Kensington,51.49135635619762,-0.1943138070951425,51.490109027210565,-0.2062036922180267,0.84
District,East Ham,Upton Park,51.53924625194368,0.0515162934805761,51.536628259878114,0.0345418397236073,1.21
District,East Putney,Southfields,51.45887944035384,-0.2109982315959417,51.44488297741004,-0.2066093830909312,1.59
District,Elm Park,Dagenham East,51.54912490990794,0.1972526842834268,51.54418761328958,0.1658334333091666,2.24
District,Embankment,Westminster,51.50731229694681,-0.1223673356621198,51.501401389193255,-0.1250020783467796,0.68
District,Fulham Broadway,Parsons Green,51.480260585746336,-0.1955441615278966,51.47495982565945,-0.2011244900122527,0.71
District,Gloucester Road,Earls Court,51.4944992596252,-0.183543557571591,51.49135635619762,-0.1943138070951425,0.82
District,Gunnersbury,Kew Gardens,51.49186296322991,-0.2751641314162503,51.476788671230366,-0.2853810066761743,1.82
District,Hammersmith (District),Ravenscourt Park,51.49181941355715,-0.2228609258853042,51.494067596546,-0.2359692298601434,0.94
District,High Street Kensington,Notting Hill Gate,51.50072913416872,-0.1915660554964191,51.50937501801177,-0.1959216162263908,1.01
District,Hornchurch,Elm Park,51.55435547079002,0.2189269994111758,51.54912490990794,0.1972526842834268,1.61
District,Kew Gardens,Richmond,51.476788671230366,-0.2853810066761743,51.46323239395917,-0.3017391287049293,1.89
District,Mansion House,Blackfriars,51.5120915984511,-0.0941976572437842,51.51158676169501,-0.1029953846245054,0.61
District,Monument,Cannon Street,51.51063027735101,-0.0861883132610571,51.51136194370192,-0.0902505264150347,0.29
District,Notting Hill Gate,Bayswater,51.50937501801177,-0.1959216162263908,51.51211098317958,-0.1879015718782054,0.63
District,Paddington,Edgware Road,51.51539350022652,-0.1757367502657722,51.519997771093394,-0.1676682526511785,0.76
District,Parsons Green,Putney Bridge,51.47495982565945,-0.2011244900122527,51.46786499705636,-0.2093654143019544,0.97
District,Plaistow,West Ham,51.53128836681778,0.0177806419969851,51.528525530726974,0.0053173938327879,0.92
District,Putney Bridge,East Putney,51.46786499705636,-0.2093654143019544,51.45887944035384,-0.2109982315959417,1.01
District,Ravenscourt Park,Stamford Brook,51.494067596546,-0.2359692298601434,51.49444956856966,-0.245246306027922,0.64
District,Sloane Square,South Kensington,51.49235951048056,-0.1564888560570236,51.49407108325524,-0.1739230213376395,1.22
District,South Kensington,Gloucester Road,51.49407108325524,-0.1739230213376395,51.4944992596252,-0.183543557571591,0.67
District,Southfields,Wimbledon Park,51.44488297741004,-0.2066093830909312,51.4345806287444,-0.1991862729730618,1.26
District,Stamford Brook,Turnham Green,51.49444956856966,-0.245246306027922,51.49518152685563,-0.2545245642842539,0.65
District,Stepney Green,Whitechapel,51.521995758615454,-0.047382523194855,51.5195876908872,-0.0594204849881092,0.88
District,Temple,Embankment,51.51104042360467,-0.1137257495312543,51.50731229694681,-0.1223673356621198,0.73
District,Tower Hill,Monument,51.51039415022928,-0.0767011981209769,51.51063027735101,-0.0861883132610571,0.66
District,Turnham Green,Chiswick Park,51.49518152685563,-0.2545245642842539,51.49437027794272,-0.2677369179922983,0.92
District,Turnham Green,Gunnersbury,51.49518152685563,-0.2545245642842539,51.49186296322991,-0.2751641314162503,1.48
District,Upminster,Upminster Bridge,51.55876377100152,0.2514008048009922,51.55771918780094,0.2345418919290422,1.17
District,Upminster Bridge,Hornchurch,51.55771918780094,0.2345418919290422,51.55435547079002,0.2189269994111758,1.14
District,Upney,Barking,51.53840581666546,0.1015317446641368,51.53952124839739,0.0808316104030654,1.44
District,Upton Park,Plaistow,51.536628259878114,0.0345418397236073,51.53128836681778,0.0177806419969851,1.3
District,Victoria,Sloane Square,51.49642371956767,-0.1439207051263039,51.49235951048056,-0.1564888560570236,0.98
District,West Brompton,Fulham Broadway,51.48732859696135,-0.1955388096704278,51.480260585746336,-0.1955441615278966,0.79
District,West Ham,Bromley-by-Bow,51.528525530726974,0.0053173938327879,51.52484018370095,-0.0116823743530453,1.25
District,West Kensington,Barons Court,51.490109027210565,-0.2062036922180267,51.490228334902,-0.2134301424178916,0.5
District,Whitechapel,Aldgate East,51.5195876908872,-0.0594204849881092,51.51508150569872,-0.0730014624207395,1.07
District,Wimbledon Park,Wimbledon,51.4345806287444,-0.1991862729730618,51.4211075087935,-0.2066628334400531,1.59
Hammersmith and City,Aldgate East,Whitechapel,51.51508150569872,-0.0730014624207395,51.5195876908872,-0.0594204849881092,1.07
Hammersmith and City,Baker Street,Great Portland Street,51.52312936605881,-0.1569041929861845,51.52378856271794,-0.1439614240810903,0.9
Hammersmith and City,Barbican,Moorgate,51.52021512610784,-0.0977215780905022,51.51843699583112,-0.0890176874196191,0.63
Hammersmith and City,Bow Road,Bromley-by-Bow,51.52704176950966,-0.0243595906326814,51.52484018370095,-0.0116823743530453,0.91
Hammersmith and City,Bromley-by-Bow,West Ham,51.52484018370095,-0.0116823743530453,51.528525530726974,0.0053173938327879,1.25
Hammersmith and City,East Ham,Barking,51.53924625194368,0.0515162934805761,51.53952124839739,0.0808316104030654,2.03
Hammersmith and City,Edgware Road,Baker Street,51.519997771093394,-0.1676682526511785,51.52312936605881,-0.1569041929861845,0.82
Hammersmith and City,Farringdon,Barbican,51.52019551919777,-0.1048430613167642,51.52021512610784,-0.0977215780905022,0.49
Hammersmith and City,Goldhawk Road,Shepherds Bush Market,51.50207659663676,-0.2274040032488232,51.50588033819017,-0.2274004904102091,0.42
Hammersmith and City,Great Portland Street,Euston Square,51.52378856271794,-0.1439614240810903,51.525468382999584,-0.1353444884426915,0.62
Hammersmith and City,Hammersmith (Met.),Goldhawk Road,51.49348298668772,-0.2246401545007005,51.50207659663676,-0.2274040032488232,0.97
Hammersmith and City,Ladbroke Grove,Westbourne Park,51.51721033175281,-0.2101981698917929,51.520988514909256,-0.2008825128147461,0.77
Hammersmith and City,Latimer Road,Ladbroke Grove,51.51395774487751,-0.2174596633172416,51.51721033175281,-0.2101981698917929,0.62
Hammersmith and City,Liverpool Street,Aldgate East,51.51759813225402,-0.0822496218888544,51.51508150569872,-0.0730014624207395,0.7
Hammersmith and City,Mile End,Bow Road,51.5253109195645,-0.0326660842711517,51.52704176950966,-0.0243595906326814,0.61
Hammersmith and City,Moorgate,Liverpool Street,51.51843699583112,-0.0890176874196191,51.51759813225402,-0.0822496218888544,0.48
Hammersmith and City,Paddington,Edgware Road,51.51539350022652,-0.1757367502657722,51.519997771093394,-0.1676682526511785,0.76
Hammersmith and City,Plaistow,Upton Park,51.53128836681778,0.0177806419969851,51.536628259878114,0.0345418397236073,1.3
Hammersmith and City,Royal Oak,Paddington,51.5182940459234,-0.1888236715468541,51.51539350022652,-0.1757367502657722,0.96
Hammersmith and City,Shepherds Bush Market,Wood Lane,51.50588033819017,-0.2274004904102091,51.5096578296917,-0.2244726057099385,0.47
Hammersmith and City,Stepney Green,Mile End,51.521995758615454,-0.047382523194855,51.5253109195645,-0.0326660842711517,1.08
Hammersmith and City,Upton Park,East Ham,51.536628259878114,0.0345418397236073,51.53924625194368,0.0515162934805761,1.21
Hammersmith and City,West Ham,Plaistow,51.528525530726974,0.0053173938327879,51.53128836681778,0.0177806419969851,0.92
Hammersmith and City,Westbourne Park,Royal Oak,51.520988514909256,-0.2008825128147461,51.5182940459234,-0.1888236715468541,0.89
Hammersmith and City,Whitechapel,Stepney Green,51.5195876908872,-0.0594204849881092,51.521995758615454,-0.047382523194855,0.88
Hammersmith and City,Wood Lane,Latimer Road,51.5096578296917,-0.2244726057099385,51.51395774487751,-0.2174596633172416,0.68
Jubilee,Baker Street,Bond Street,51.52312936605881,-0.1569041929861845,51.513797282327445,-0.1496136085316461,1.15
Jubilee,Bermondsey,Canada Water,51.49796067750633,-0.0643300898115236,51.49816833125088,-0.0508071208490972,0.94
Jubilee,Bond Street,Green Park,51.513797282327445,-0.1496136085316461,51.50676025371464,-0.1424775744225331,0.93
Jubilee,Canada Water,Canary Wharf,51.49816833125088,-0.0508071208490972,51.50357837512887,-0.0194668401393244,2.25
Jubilee,Canary Wharf,North Greenwich,51.50357837512887,-0.0194668401393244,51.5002551610895,0.0035862591259508,1.64
Jubilee,Canning Town,West Ham,51.51387030350512,0.0083056327487643,51.528525530726974,0.0053173938327879,1.64
Jubilee,Canons Park,Queensbury,51.60765009028535,-0.294391591494146,51.59388250931327,-0.286331592620629,1.63
Jubilee,Dollis Hill,Willesden Green,51.55185020227431,-0.2387977583647576,51.54937292482699,-0.2224076012496468,1.17
Jubilee,Finchley Road,Swiss Cottage,51.54709590643439,-0.1800505586324935,51.5430345616616,-0.1756266026411379,0.55
Jubilee,Green Park,Westminster,51.50676025371464,-0.1424775744225331,51.501401389193255,-0.1250020783467796,1.35
Jubilee,Kilburn,West Hampstead,51.54694410286596,-0.2046327166992552,51.54747402267271,-0.1911265834430952,0.94
Jubilee,Kingsbury,Wembley Park,51.58487606349117,-0.2786016037131724,51.56332200349157,-0.2792425481111569,2.4
Jubilee,London Bridge,Bermondsey,51.50467420930433,-0.0860055977481396,51.49796067750633,-0.0643300898115236,1.68
Jubilee,Neasden,Dollis Hill,51.55462731004116,-0.2501150416936122,51.55185020227431,-0.2387977583647576,0.84
Jubilee,North Greenwich,Canning Town,51.5002551610895,0.0035862591259508,51.51387030350512,0.0083056327487643,1.55
Jubilee,Queensbury,Kingsbury,51.59388250931327,-0.286331592620629,51.58487606349117,-0.2786016037131724,1.14
Jubilee,Southwark,London Bridge,51.50385344972166,-0.1057949389250921,51.50467420930433,-0.0860055977481396,1.37
Jubilee,Stanmore,Canons Park,51.619672950483576,-0.3030992875952985,51.60765009028535,-0.294391591494146,1.47
Jubilee,Waterloo,Southwark,51.50314645678346,-0.1132592512581959,51.50385344972166,-0.1057949389250921,0.52
Jubilee,Wembley Park,Neasden,51.56332200349157,-0.2792425481111569,51.55462731004116,-0.2501150416936122,2.23
Jubilee,West Ham,Stratford,51.528525530726974,0.0053173938327879,51.54169257587399,-0.0037516410271907,1.59
Jubilee,West Hampstead,Finchley Road,51.54747402267271,-0.1911265834430952,51.54709590643439,-0.1800505586324935,0.77
Jubilee,Westminster,Waterloo,51.501401389193255,-0.1250020783467796,51.50314645678346,-0.1132592512581959,0.84
Jubilee,Willesden Green,Kilburn,51.54937292482699,-0.2224076012496468,51.54694410286596,-0.2046327166992552,1.26
Metropolitan,Aldgate,Liverpool Street,51.5143422574978,-0.0756269123224862,51.51759813225402,-0.0822496218888544,0.58
Metropolitan,Baker Street,Finchley Road,51.52312936605881,-0.1569041929861845,51.54709590643439,-0.1800505586324935,3.11
Metropolitan,Barbican,Farringdon,51.52021512610784,-0.0977215780905022,51.52019551919777,-0.1048430613167642,0.49
Metropolitan,Farringdon,Euston Square,51.52019551919777,-0.1048430613167642,51.525468382999584,-0.1353444884426915,2.19
Metropolitan,Chalfont and Latimer,Amersham,51.66790656389214,-0.5610677589431823,51.67412832834268,-0.6065137678777907,3.21
Metropolitan,Chalfont and Latimer,Chesham,51.66790656389214,-0.5610677589431823,51.705379023301255,-0.6114296352979314,5.43
Metropolitan,Chorleywood,Chalfont and Latimer,51.65426508092765,-0.5183339108571566,51.66790656389214,-0.5610677589431823,3.32
Metropolitan,Croxley,Watford,51.64700456011115,-0.4416037868779258,51.6576044159566,-0.4172699967299536,2.05
Metropolitan,Eastcote,Ruislip Manor,51.57655117614093,-0.3968232901498021,51.57345090114912,-0.4128493444318482,1.16
Metropolitan,Euston Square,Great Portland Street,51.525468382999584,-0.1353444884426915,51.52378856271794,-0.1439614240810903,0.62
Metropolitan,Finchley Road,Wembley Park,51.54709590643439,-0.1800505586324935,51.56332200349157,-0.2792425481111569,7.09
Metropolitan,Great Portland Street,Baker Street,51.52378856271794,-0.1439614240810903,51.52312936605881,-0.1569041929861845,0.9
Metropolitan,Harrow-on-the-Hill,North Harrow,51.5793875695421,-0.3370015107060956,51.58463070784392,-0.3626329855990683,1.87
Metropolitan,Harrow-on-the-Hill,West Harrow,51.5793875695421,-0.3370015107060956,51.578923661261655,-0.3538466898684307,1.17
Metropolitan,Hillingdon,Uxbridge,51.553776781763695,-0.4498979816230209,51.54645372786724,-0.4771015464209747,2.05
Metropolitan,Ickenham,Hillingdon,51.56082433291199,-0.4415795012687994,51.553776781763695,-0.4498979816230209,0.97
Metropolitan,Liverpool Street,Moorgate,51.51759813225402,-0.0822496218888544,51.51843699583112,-0.0890176874196191,0.48
Metropolitan,Moor Park,Croxley,51.62992995953362,-0.4329130164958966,51.64700456011115,-0.4416037868779258,1.99
Metropolitan,Moor Park,Rickmansworth,51.62992995953362,-0.4329130164958966,51.640322241933696,-0.4736845710128753,3.04
Metropolitan,Moorgate,Barbican,51.51843699583112,-0.0890176874196191,51.52021512610784,-0.0977215780905022,0.63
Metropolitan,North Harrow,Pinner,51.58463070784392,-0.3626329855990683,51.59236105660715,-0.3812237817376104,1.55
Metropolitan,Northwick Park,Harrow-on-the-Hill,51.57850816965304,-0.3181993860133686,51.5793875695421,-0.3370015107060956,1.3
Metropolitan,Northwood,Moor Park,51.61121291958136,-0.4238377761958177,51.62992995953362,-0.4329130164958966,2.17
Metropolitan,Northwood Hills,Northwood,51.60080197791432,-0.4093113480568928,51.61121291958136,-0.4238377761958177,1.53
Metropolitan,Pinner,Northwood Hills,51.59236105660715,-0.3812237817376104,51.60080197791432,-0.4093113480568928,2.16
Metropolitan,Preston Road,Northwick Park,51.57210324779927,-0.2949720074830668,51.57850816965304,-0.3181993860133686,1.76
Metropolitan,Rickmansworth,Chorleywood,51.640322241933696,-0.4736845710128753,51.65426508092765,-0.5183339108571566,3.45
Metropolitan,Ruislip,Ickenham,51.572161233876166,-0.4212349155921323,51.56082433291199,-0.4415795012687994,1.89
Metropolitan,Ruislip Manor,Ruislip,51.57345090114912,-0.4128493444318482,51.572161233876166,-0.4212349155921323,0.6
Metropolitan,Wembley Park,Preston Road,51.56332200349157,-0.2792425481111569,51.57210324779927,-0.2949720074830668,1.46
Metropolitan,West Harrow,Eastcote,51.578923661261655,-0.3538466898684307,51.57655117614093,-0.3968232901498021,2.98
Northern,Archway,Highgate,51.56549031545965,-0.1351215756214728,51.57764637933854,-0.1469348609337413,1.58
Northern,Balham,Clapham South,51.443182314397006,-0.1526851619932613,51.45267624920499,-0.1479840683302919,1.11
Northern,Bank,Moorgate,51.51334691914183,-0.0890001234943746,51.51843699583112,-0.0890176874196191,0.57
Northern,Belsize Park,Hampstead,51.55019061178192,-0.1639744910255186,51.55654230644866,-0.1780145581084496,1.2
Northern,Borough,London Bridge,51.50104871772216,-0.0941973226385839,51.50467420930433,-0.0860055977481396,0.7
Northern,Brent Cross,Hendon Central,51.57659886839313,-0.2133358378663098,51.583132678162094,-0.226734137100088,1.18
Northern,Burnt Oak,Edgware,51.60255148173764,-0.2643307082008112,51.61422917451505,-0.2750936620617057,1.5
Northern,Camden Town,Chalk Farm,51.53996912160411,-0.1424523798764894,51.54414883734655,-0.1537330695060796,0.91
Northern,Camden Town,Kentish Town,51.53996912160411,-0.1424523798764894,51.55000929428177,-0.1404712627005257,1.13
Northern,Chalk Farm,Belsize Park,51.54414883734655,-0.1537330695060796,51.55019061178192,-0.1639744910255186,0.98
Northern,Charing Cross,Leicester Square,51.50835842818622,-0.1248029372330441,51.51129097417173,-0.1282421466298067,0.4
Northern,Clapham Common,Clapham North,51.46180344580792,-0.1383149013879234,51.46491600472909,-0.1299100619146426,0.68
Northern,Clapham North,Stockwell,51.46491600472909,-0.1299100619146426,51.47215905711563,-0.122846303356526,0.94
Northern,Clapham South,Clapham Common,51.45267624920499,-0.1479840683302919,51.46180344580792,-0.1383149013879234,1.22
Northern,Colindale,Burnt Oak,51.59523010894074,-0.2502875400711353,51.60255148173764,-0.2643307082008112,1.27
Northern,Colliers Wood,Tooting Broadway,51.41875889952969,-0.1774150980496051,51.42704887092591,-0.1686845257776603,1.1
Northern,East Finchley,Finchley Central,51.5873322776344,-0.1647438844467196,51.60090293685636,-0.1932206347116579,2.48
Northern,East Finchley,Mill Hill East,51.5873322776344,-0.1647438844467196,51.60831630368604,-0.2098957103144066,3.9
Northern,Elephant and Castle,Borough,51.49584922002923,-0.1007387142562823,51.50104871772216,-0.0941973226385839,0.73
Northern,Embankment,Charing Cross,51.50731229694681,-0.1223673356621198,51.50835842818622,-0.1248029372330441,0.2
Northern,Euston,Camden Town,51.528664114832,-0.1332964708191512,51.53996912160411,-0.1424523798764894,1.41
Northern,Euston,Mornington Crescent,51.528664114832,-0.1332964708191512,51.53436199274684,-0.1387443487247141,0.74
Northern,Finchley Central,West Finchley,51.60090293685636,-0.1932206347116579,51.60926242118551,-0.1889171074792101,0.98
Northern,Golders Green,Brent Cross,51.57221521685042,-0.1948345569382634,51.57659886839313,-0.2133358378663098,1.37
Northern,Goodge Street,Warren Street,51.52061289126984,-0.1348076891147268,51.524579764761874,-0.1382783305384803,0.5
Northern,Hampstead,Golders Green,51.55654230644866,-0.1780145581084496,51.57221521685042,-0.1948345569382634,2.1
Northern,Hendon Central,Colindale,51.583132678162094,-0.226734137100088,51.59523010894074,-0.2502875400711353,2.11
Northern,Highgate,East Finchley,51.57764637933854,-0.1469348609337413,51.5873322776344,-0.1647438844467196,1.64
Northern,Kennington,Elephant and Castle,51.48866228881571,-0.1050706127740003,51.49584922002923,-0.1007387142562823,0.85
Northern,Kennington,Nine Elms,51.48866228881571,-0.1050706127740003,51.48000104922924,-0.1285009828307203,1.89
Northern,Kennington,Waterloo,51.48866228881571,-0.1050706127740003,51.50314645678346,-0.1132592512581959,1.71
Northern,Kentish Town,Tufnell Park,51.55000929428177,-0.1404712627005257,51.55644057500823,-0.1377421740527929,0.74
Northern,Leicester Square,Tottenham Court Road,51.51129097417173,-0.1282421466298067,51.516210657936185,-0.1311104379402324,0.58
Northern,London Bridge,Bank,51.50467420930433,-0.0860055977481396,51.51334691914183,-0.0890001234943746,0.99
Northern,Moorgate,Old Street,51.51843699583112,-0.0890176874196191,51.52558133074304,-0.0876229573873512,0.8
Northern,Morden,South Wimbledon,51.40218564474951,-0.1948519795190437,51.41536039779992,-0.1919745440990572,1.48
Northern,Mornington Crescent,Camden Town,51.53436199274684,-0.1387443487247141,51.53996912160411,-0.1424523798764894,0.67
Northern,Nine Elms,Battersea Power Station,51.48000104922924,-0.1285009828307203,51.479496343757326,-0.1420013513646783,0.94
Northern,Old Street,Angel,51.52558133074304,-0.0876229573873512,51.53296784539842,-0.1055814483037889,1.49
Northern,Euston,Angel,51.528664114832,-0.1332964708191512,51.53296784539842,-0.1055814483037889,1.98
Northern,Oval,Kennington,51.48141241737747,-0.1133210751213317,51.48866228881571,-0.1050706127740003,0.99
Northern,South Wimbledon,Colliers Wood,51.41536039779992,-0.1919745440990572,51.41875889952969,-0.1774150980496051,1.08
Northern,Stockwell,Oval,51.47215905711563,-0.122846303356526,51.48141241737747,-0.1133210751213317,1.22
Northern,Tooting Bec,Balham,51.43583780495548,-0.1597004908317375,51.443182314397006,-0.1526851619932613,0.95
Northern,Tooting Broadway,Tooting Bec,51.42704887092591,-0.1686845257776603,51.43583780495548,-0.1597004908317375,1.16
Northern,Tottenham Court Road,Goodge Street,51.516210657936185,-0.1311104379402324,51.52061289126984,-0.1348076891147268,0.55
Northern,Totteridge and Whetstone,High Barnet,51.63024642876388,-0.1793542612333949,51.65168793826675,-0.1941653779796151,2.59
Northern,Tufnell Park,Archway,51.55644057500823,-0.1377421740527929,51.56549031545965,-0.1351215756214728,1.02
Northern,Warren Street,Euston,51.524579764761874,-0.1382783305384803,51.528664114832,-0.1332964708191512,0.57
Northern,Waterloo,Embankment,51.50314645678346,-0.1132592512581959,51.50731229694681,-0.1223673356621198,0.78
Northern,West Finchley,Woodside Park,51.60926242118551,-0.1889171074792101,51.61786809900362,-0.1854255027302192,0.99
Northern,Woodside Park,Totteridge and Whetstone,51.61786809900362,-0.1854255027302192,51.63024642876388,-0.1793542612333949,1.44
Piccadilly,Acton Town,Ealing Common,51.50307098636339,-0.280302696832724,51.510248187933655,-0.2871514131053222,0.93
Piccadilly,Acton Town,South Ealing,51.50307098636339,-0.280302696832724,51.50164352033085,-0.3070402394612233,1.86
Piccadilly,Alperton,Sudbury Town,51.54120878643842,-0.2995157534755783,51.55139692710825,-0.3163434799075774,1.62
Piccadilly,Arnos Grove,Bounds Green,51.61622992455143,-0.1342702177218493,51.60703172061751,-0.1241770647347964,1.24
Piccadilly,Arsenal,Holloway Road,51.55854120559965,-0.1054999329611858,51.552815921064415,-0.1129356962168598,0.82
Piccadilly,Barons Court,Hammersmith (District),51.490228334902,-0.2134301424178916,51.49181941355715,-0.2228609258853042,0.68
Piccadilly,Boston Manor,Osterley,51.49576500584812,-0.3247471826223813,51.48121623575927,-0.3520960888490031,2.49
Piccadilly,Bounds Green,Wood Green,51.60703172061751,-0.1241770647347964,51.59745355165763,-0.1095265887761309,1.47
Piccadilly,Cockfosters,Oakwood,51.65202423620424,-0.149916709772051,51.64763774735996,-0.1318535388133937,1.34
Piccadilly,Covent Garden,Leicester Square,51.51276003353218,-0.1245068937369663,51.51129097417173,-0.1282421466298067,0.31
Piccadilly,Ealing Common,North Ealing,51.510248187933655,-0.2871514131053222,51.51762181807098,-0.2889935477531711,0.83
Piccadilly,Earls Court,Barons Court,51.49135635619762,-0.1943138070951425,51.490228334902,-0.2134301424178916,1.33
Piccadilly,Eastcote,Ruislip Manor,51.57655117614093,-0.3968232901498021,51.57345090114912,-0.4128493444318482,1.16
Piccadilly,Finsbury Park,Arsenal,51.564635274841386,-0.1058814855289023,51.55854120559965,-0.1054999329611858,0.68
Piccadilly,Gloucester Road,Earls Court,51.4944992596252,-0.183543557571591,51.49135635619762,-0.1943138070951425,0.82
Piccadilly,Green Park,Hyde Park Corner,51.50676025371464,-0.1424775744225331,51.502583765542106,-0.1524741126318679,0.83
Piccadilly,Hammersmith (District),Turnham Green,51.49181941355715,-0.2228609258853042,51.49518152685563,-0.2545245642842539,2.22
Piccadilly,Hatton Cross,Heathrow Terminal 4,51.466684612990974,-0.4233805529699787,51.4597796985324,-0.4477295782660727,1.85
Piccadilly,Hatton Cross,Heathrow Terminals 123,51.466684612990974,-0.4233805529699787,51.47128866191333,-0.4524072136493198,2.08
Piccadilly,Heathrow Terminals 123,Heathrow Terminal 4,51.47128866191333,-0.4524072136493198,51.4597796985324,-0.4477295782660727,1.32
Piccadilly,Heathrow Terminals 123,Heathrow Terminal 5,51.47128866191333,-0.4524072136493198,51.470024624464,-0.4906474891242473,2.65
Piccadilly,Hillingdon,Uxbridge,51.553776781763695,-0.4498979816230209,51.54645372786724,-0.4771015464209747,2.05
Piccadilly,Holborn,Covent Garden,51.51723554139566,-0.1198405066029367,51.51276003353218,-0.1245068937369663,0.59
Piccadilly,Holloway Road,Caledonian Road,51.552815921064415,-0.1129356962168598,51.54788524982811,-0.1183608610646948,0.66
Piccadilly,Hounslow Central,Hounslow West,51.47092516879989,-0.3659581213668801,51.47310508637143,-0.385707619977202,1.39
Piccadilly,Hounslow East,Hounslow Central,51.47370731480755,-0.3552753144989688,51.47092516879989,-0.3659581213668801,0.8
Piccadilly,Hounslow West,Hatton Cross,51.47310508637143,-0.385707619977202,51.466684612990974,-0.4233805529699787,2.71
Piccadilly,Hyde Park Corner,Knightsbridge,51.502583765542106,-0.1524741126318679,51.50135463701893,-0.1606644846228093,0.58
Piccadilly,Ickenham,Hillingdon,51.56082433291199,-0.4415795012687994,51.553776781763695,-0.4498979816230209,0.97
Piccadilly,Knightsbridge,South Kensington,51.50135463701893,-0.1606644846228093,51.49407108325524,-0.1739230213376395,1.22
Piccadilly,Leicester Square,Piccadilly Circus,51.51129097417173,-0.1282421466298067,51.50969653217059,-0.1337115961590762,0.42
Piccadilly,Manor House,Finsbury Park,51.570746986190926,-0.0956849757319274,51.564635274841386,-0.1058814855289023,0.98
Piccadilly,North Ealing,Park Royal,51.51762181807098,-0.2889935477531711,51.526833556086295,-0.2849289129671047,1.06
Piccadilly,Northfields,Boston Manor,51.50049115689572,-0.3150648129885717,51.49576500584812,-0.3247471826223813,0.85
Piccadilly,Oakwood,Southgate,51.64763774735996,-0.1318535388133937,51.63237564173069,-0.1277700463078405,1.72
Piccadilly,Osterley,Hounslow East,51.48121623575927,-0.3520960888490031,51.47370731480755,-0.3552753144989688,0.86
Piccadilly,Park Royal,Alperton,51.526833556086295,-0.2849289129671047,51.54120878643842,-0.2995157534755783,1.89
Piccadilly,Piccadilly Circus,Green Park,51.50969653217059,-0.1337115961590762,51.50676025371464,-0.1424775744225331,0.69
Piccadilly,Rayners Lane,Eastcote,51.57539612738852,-0.3710608057487111,51.57655117614093,-0.3968232901498021,1.79
Piccadilly,Ruislip,Ickenham,51.572161233876166,-0.4212349155921323,51.56082433291199,-0.4415795012687994,1.89
Piccadilly,Ruislip Manor,Ruislip,51.57345090114912,-0.4128493444318482,51.572161233876166,-0.4212349155921323,0.6
Piccadilly,Russell Square,Holborn,51.523012836646224,-0.1245901968726192,51.51723554139566,-0.1198405066029367,0.72
Piccadilly,Caledonian Road,Russell Square,51.54788524982811,-0.1183608610646948,51.523012836646224,-0.1245901968726192,2.8
Piccadilly,South Ealing,Northfields,51.50164352033085,-0.3070402394612233,51.50049115689572,-0.3150648129885717,0.57
Piccadilly,South Harrow,Rayners Lane,51.56467959482167,-0.351893963731605,51.57539612738852,-0.3710608057487111,1.78
Piccadilly,South Harrow,Sudbury Hill,51.56467959482167,-0.351893963731605,51.55733901102981,-0.3363921085382283,1.35
Piccadilly,South Kensington,Gloucester Road,51.49407108325524,-0.1739230213376395,51.4944992596252,-0.183543557571591,0.67
Piccadilly,Southgate,Arnos Grove,51.63237564173069,-0.1277700463078405,51.61622992455143,-0.1342702177218493,1.85
Piccadilly,Sudbury Town,Sudbury Hill,51.55139692710825,-0.3163434799075774,51.55733901102981,-0.3363921085382283,1.54
Piccadilly,Turnham Green,Acton Town,51.49518152685563,-0.2545245642842539,51.50307098636339,-0.280302696832724,1.99
Piccadilly,Turnpike Lane,Manor House,51.59035796825513,-0.1028050405776601,51.570746986190926,-0.0956849757319274,2.24
Piccadilly,Wood Green,Turnpike Lane,51.59745355165763,-0.1095265887761309,51.59035796825513,-0.1028050405776601,0.92
Victoria,Blackhorse Road,Tottenham Hale,51.58577656484627,-0.0396257114650528,51.58799768229062,-0.0601878224855683,1.44
Victoria,Euston,Warren Street,51.528664114832,-0.1332964708191512,51.524579764761874,-0.1382783305384803,0.57
Victoria,Finsbury Park,Highbury and Islington,51.564635274841386,-0.1058814855289023,51.54649533884997,-0.1040821392393529,2.02
Victoria,Green Park,Victoria,51.50676025371464,-0.1424775744225331,51.49642371956767,-0.1439207051263039,1.15
Victoria,Highbury and Islington,Euston,51.54649533884997,-0.1040821392393529,51.528664114832,-0.1332964708191512,2.83
Victoria,Oxford Circus,Green Park,51.51522317440166,-0.1408361701333405,51.50676025371464,-0.1424775744225331,0.95
Victoria,Pimlico,Vauxhall,51.48955264664939,-0.1331082573913848,51.48573560145266,-0.1238299519704192,0.77
Victoria,Seven Sisters,Finsbury Park,51.58336204399537,-0.072466822518891,51.564635274841386,-0.1058814855289023,3.11
Victoria,Stockwell,Brixton,51.47215905711563,-0.122846303356526,51.46273661697816,-0.1145520968292283,1.2
Victoria,Tottenham Hale,Seven Sisters,51.58799768229062,-0.0601878224855683,51.58336204399537,-0.072466822518891,0.99
Victoria,Vauxhall,Stockwell,51.48573560145266,-0.1238299519704192,51.47215905711563,-0.122846303356526,1.51
Victoria,Victoria,Pimlico,51.49642371956767,-0.1439207051263039,51.48955264664939,-0.1331082573913848,1.07
Victoria,Walthamstow Central,Blackhorse Road,51.58301808337606,-0.0199405450055509,51.58577656484627,-0.0396257114650528,1.39
Victoria,Warren Street,Oxford Circus,51.524579764761874,-0.1382783305384803,51.51522317440166,-0.1408361701333405,1.06
Waterloo and City,Waterloo,Bank,51.50314645678346,-0.1132592512581959,51.51334691914183,-0.0890001234943746,2.03
